{
"type": "FeatureCollection",
"name": "Dump_Site",
"crs": { "type": "name", "properties": { "name": "urn:ogc:def:crs:OGC:1.3:CRS84" } },
"features": [
{ "type": "Feature", "properties": { "OBJECTID": 1, "FOLIO": "3030160000010", "ID": 50, "NAME": "WEST DADE HOME CHEMICAL COLLECTION", "ADDRESS": "8831 NW 58TH ST", "CITY": "UNINCORPORATED MIAMI-DADE", "ZIPCODE": 33178, "TYPE": 4, "ID2": "50", "CNTYOWN": "Y", "LAT": 25.82745, "LON": -80.33964, "POINT_X": 873382.34641368, "POINT_Y": 543518.93892252003, "GlobalID": "f1e33363-d359-4055-b918-ab201d9d09f0" }, "geometry": { "type": "Point", "coordinates": [ -80.339638475425005, 25.827445185513302 ] } },
{ "type": "Feature", "properties": { "OBJECTID": 2, "FOLIO": "3050290000390", "ID": 10, "NAME": "WEST PERRINE", "ADDRESS": "16651 SW 107TH AVE", "CITY": "UNINCORPORATED MIAMI-DADE", "ZIPCODE": 33157, "TYPE": 1, "ID2": " 17", "CNTYOWN": "Y", "LAT": 25.61428, "LON": -80.36446, "POINT_X": 865591.56048609002, "POINT_Y": 466003.37774660002, "GlobalID": "0da10154-26de-4ce1-a3d8-9532a7fd6881" }, "geometry": { "type": "Point", "coordinates": [ -80.364456743819105, 25.614282001670102 ] } },
{ "type": "Feature", "properties": { "OBJECTID": 3, "FOLIO": "3050190017820", "ID": 9, "NAME": "RICHMOND HEIGHTS", "ADDRESS": "14050 BOGGS DR", "CITY": "UNINCORPORATED MIAMI-DADE", "ZIPCODE": 33176, "TYPE": 1, "ID2": " 16", "CNTYOWN": "Y", "LAT": 25.63792, "LON": -80.37451, "POINT_X": 862238.14855776005, "POINT_Y": 474578.46919218998, "GlobalID": "8f2536ea-2a88-4311-a517-6cc88f9427ec" }, "geometry": { "type": "Point", "coordinates": [ -80.374510061454899, 25.637918932296301 ] } },
{ "type": "Feature", "properties": { "OBJECTID": 4, "FOLIO": "3040310000170", "ID": 7, "NAME": "SUNSET KENDALL", "ADDRESS": "8000 SW 107TH AVE", "CITY": "UNINCORPORATED MIAMI-DADE", "ZIPCODE": 33173, "TYPE": 1, "ID2": " 13", "CNTYOWN": "Y", "LAT": 25.69518, "LON": -80.36937, "POINT_X": 863830.625, "POINT_Y": 495398.8125, "GlobalID": "9b0186f5-6266-4cb1-9ad9-945ab0f2ed6f" }, "geometry": { "type": "Point", "coordinates": [ -80.369372308884095, 25.695181730297101 ] } },
{ "type": "Feature", "properties": { "OBJECTID": 5, "FOLIO": "3040070000020", "ID": 6, "NAME": "SNAPPER CREEK", "ADDRESS": "2200 SW 117TH AVE", "CITY": "UNINCORPORATED MIAMI-DADE", "ZIPCODE": 33165, "TYPE": 1, "ID2": " 11", "CNTYOWN": "Y", "LAT": 25.74866, "LON": -80.38291, "POINT_X": 859283.81260293, "POINT_Y": 514814.68760410999, "GlobalID": "72eec798-5516-40d0-ad78-0c546d126286" }, "geometry": { "type": "Point", "coordinates": [ -80.382906718620106, 25.748659957614599 ] } },
{ "type": "Feature", "properties": { "OBJECTID": 6, "FOLIO": "3530170010120", "ID": 42, "NAME": "RESOURCES RECOVERY FACILITY", "ADDRESS": "6990 NW 97TH AVE", "CITY": "DORAL", "ZIPCODE": 33178, "TYPE": 3, "ID2": " 42", "CNTYOWN": "Y", "LAT": 25.83619, "LON": -80.35539, "POINT_X": 868186.20523117995, "POINT_Y": 546672.69606643997, "GlobalID": "c942eec9-1cf9-40e4-83ca-c8c90c64594f" }, "geometry": { "type": "Point", "coordinates": [ -80.355387626696796, 25.836192911632502 ] } },
{ "type": "Feature", "properties": { "OBJECTID": 7, "FOLIO": "3069350000030", "ID": 13, "NAME": "MOODY DRIVE", "ADDRESS": "12970 SW 268TH ST", "CITY": "UNINCORPORATED MIAMI-DADE", "ZIPCODE": 33032, "TYPE": 1, "ID2": " 20", "CNTYOWN": "Y", "LAT": 25.51718, "LON": -80.40176, "POINT_X": 853461.00010158995, "POINT_Y": 430653.53112360003, "GlobalID": "3dfcbd28-ae81-4a0f-b73c-d6d48e225752" }, "geometry": { "type": "Point", "coordinates": [ -80.401751351173203, 25.51717648224 ] } },
{ "type": "Feature", "properties": { "OBJECTID": 8, "FOLIO": "3411360000080", "ID": 2, "NAME": "NORWOOD", "ADDRESS": "19901 NW 7TH AVE", "CITY": "MIAMI GARDENS", "ZIPCODE": 33169, "TYPE": 1, "ID2": "  3", "CNTYOWN": "Y", "LAT": 25.95839, "LON": -80.21188, "POINT_X": 915124.93746901001, "POINT_Y": 591344.50009534997, "GlobalID": "bde1be8b-095e-43bb-b551-4c6178aae9f8" }, "geometry": { "type": "Point", "coordinates": [ -80.211870892240398, 25.9583883178619 ] } },
{ "type": "Feature", "properties": { "OBJECTID": 9, "FOLIO": "3350330000950", "ID": 11, "NAME": "EUREKA DRIVE", "ADDRESS": "9401 SW 184TH ST", "CITY": "UNINCORPORATED MIAMI-DADE", "ZIPCODE": 33157, "TYPE": 1, "ID2": " 18", "CNTYOWN": "Y", "LAT": 25.59998, "LON": -80.34473, "POINT_X": 872119.18588225998, "POINT_Y": 460838.28276186, "GlobalID": "234d75d7-8d04-4202-af84-4ca0c152b9da" }, "geometry": { "type": "Point", "coordinates": [ -80.344725711235796, 25.599983617297902 ] } },
{ "type": "Feature", "properties": { "OBJECTID": 10, "FOLIO": "0131350020040", "ID": 31, "NAME": "CENTRAL TRANSFER STATION", "ADDRESS": "1150 NW 20TH ST", "CITY": "MIAMI", "ZIPCODE": 33127, "TYPE": 2, "ID2": " 31", "CNTYOWN": "Y", "LAT": 25.79463, "LON": -80.21366, "POINT_X": 914894.53537076002, "POINT_Y": 531820.22117826005, "GlobalID": "3e34ee4c-c608-4eff-abd9-7a8c029a9fca" }, "geometry": { "type": "Point", "coordinates": [ -80.213657149063707, 25.794631616129902 ] } },
{ "type": "Feature", "properties": { "OBJECTID": 11, "FOLIO": "3021130020010", "ID": 4, "NAME": "GOLDEN GLADES", "ADDRESS": "140 NW 160TH ST", "CITY": "UNINCORPORATED MIAMI-DADE", "ZIPCODE": 33169, "TYPE": 1, "ID2": "  5", "CNTYOWN": "Y", "LAT": 25.92114, "LON": -80.20344, "POINT_X": 917977.37500559003, "POINT_Y": 577823.74990594003, "GlobalID": "3d7cc509-d1f4-4bac-8d2c-19a81550fcf8" }, "geometry": { "type": "Point", "coordinates": [ -80.2034404916581, 25.921143538588499 ] } },
{ "type": "Feature", "properties": { "OBJECTID": 12, "FOLIO": "3060210000050", "ID": 41, "NAME": "SOUTH DADE LANDFILL", "ADDRESS": "23707 SW 97 AVE", "CITY": "UNINCORPORATED MIAMI-DADE", "ZIPCODE": 33032, "TYPE": 3, "ID2": " 41", "CNTYOWN": "Y", "LAT": 25.54572, "LON": -80.34581, "POINT_X": 871860.48692458996, "POINT_Y": 441113.85501919, "GlobalID": "8805f750-09f0-442f-a3cb-4df5084af687" }, "geometry": { "type": "Point", "coordinates": [ -80.345805636225904, 25.545718328245901 ] } },
{ "type": "Feature", "properties": { "OBJECTID": 13, "FOLIO": "3040140320010", "ID": 32, "NAME": "WEST TRANSFER STATION", "ADDRESS": "2900 SW 72ND AVE", "CITY": "UNINCORPORATED MIAMI-DADE", "ZIPCODE": 33155, "TYPE": 2, "ID2": " 32", "CNTYOWN": "Y", "LAT": 25.74308, "LON": -80.31235, "POINT_X": 882523.17524483998, "POINT_Y": 512900.44143260003, "GlobalID": "eccb45a1-fd97-409d-bcd8-22d845c09dd4" }, "geometry": { "type": "Point", "coordinates": [ -80.312336682375602, 25.743077073984502 ] } },
{ "type": "Feature", "properties": { "OBJECTID": 14, "FOLIO": "3011310010010", "ID": 40, "NAME": "NORTH DADE LANDFILL", "ADDRESS": "21500 NW 47TH AVE", "CITY": "UNINCORPORATED MIAMI-DADE", "ZIPCODE": 33055, "TYPE": 3, "ID2": " 40", "CNTYOWN": "Y", "LAT": 25.96852, "LON": -80.27935, "POINT_X": 892933.68756025995, "POINT_Y": 594898.62487685005, "GlobalID": "df52e1f1-750c-48ea-a128-de053c19d0fa" }, "geometry": { "type": "Point", "coordinates": [ -80.279345299879793, 25.968518162604699 ] } },
{ "type": "Feature", "properties": { "OBJECTID": 15, "FOLIO": "3011310010010", "ID": 1, "NAME": "NORTH DADE", "ADDRESS": "21500 NW 47TH AVE", "CITY": "UNINCORPORATED MIAMI-DADE", "ZIPCODE": 33055, "TYPE": 1, "ID2": "  2", "CNTYOWN": "Y", "LAT": 25.96985, "LON": -80.27929, "POINT_X": 892947.86797808995, "POINT_Y": 595382.53204552003, "GlobalID": "da4e6b67-5a5f-4603-bce7-36df501af221" }, "geometry": { "type": "Point", "coordinates": [ -80.279294028535006, 25.9698492551607 ] } },
{ "type": "Feature", "properties": { "OBJECTID": 16, "FOLIO": "3031100000360", "ID": 5, "NAME": "WEST LITTLE RIVER", "ADDRESS": "1830 NW 79TH ST", "CITY": "UNINCORPORATED MIAMI-DADE", "ZIPCODE": 33147, "TYPE": 1, "ID2": " 10", "CNTYOWN": "Y", "LAT": 25.84597, "LON": -80.22842, "POINT_X": 909927.81236459001, "POINT_Y": 550451.68719611003, "GlobalID": "a99f66ff-c3ef-471c-ae8f-c97fd064579c" }, "geometry": { "type": "Point", "coordinates": [ -80.228419167720901, 25.8459710795718 ] } },
{ "type": "Feature", "properties": { "OBJECTID": 17, "FOLIO": "3060070000022", "ID": 12, "NAME": "SOUTH MIAMI HEIGHTS", "ADDRESS": "20800 SW 117TH CT", "CITY": "UNINCORPORATED MIAMI-DADE", "ZIPCODE": 33177, "TYPE": 1, "ID2": " 19", "CNTYOWN": "Y", "LAT": 25.57311, "LON": -80.38002, "POINT_X": 860532.28681200999, "POINT_Y": 451013.43659793999, "GlobalID": "81dd93db-90d0-48ea-9d30-409df78779ce" }, "geometry": { "type": "Point", "coordinates": [ -80.380022142902902, 25.5731052149082 ] } },
{ "type": "Feature", "properties": { "OBJECTID": 18, "FOLIO": "3060210000010", "ID": 51, "NAME": "SOUTH DADE HOME CHEMICAL COLLECTION", "ADDRESS": "23707 SW 97TH AVE", "CITY": "UNINCORPORATED MIAMI-DADE", "ZIPCODE": 33032, "TYPE": 4, "ID2": "51", "CNTYOWN": "Y", "LAT": 25.54468, "LON": -80.34715, "POINT_X": 871420.38248984003, "POINT_Y": 440733.64679010003, "GlobalID": "166a038a-6813-4cd1-9447-bf77760b3a1d" }, "geometry": { "type": "Point", "coordinates": [ -80.347146063665406, 25.544678193895699 ] } },
{ "type": "Feature", "properties": { "OBJECTID": 19, "FOLIO": "0350240010030", "ID": 8, "NAME": "CHAPMAN FIELD", "ADDRESS": "13601 DEERING BAY DR", "CITY": "CORAL GABLES", "ZIPCODE": 33158, "TYPE": 1, "ID2": " 15", "CNTYOWN": "Y", "LAT": 25.6444, "LON": -80.28903, "POINT_X": 890388.24317608995, "POINT_Y": 477074.86249335, "GlobalID": "f63f3bf4-7c98-43f3-aaa7-5d51c7aa672f" }, "geometry": { "type": "Point", "coordinates": [ -80.2890297468021, 25.644396400898302 ] } },
{ "type": "Feature", "properties": { "OBJECTID": 20, "FOLIO": "3022060000121", "ID": 30, "NAME": "NORTHEAST REGIONAL TRANSFER STATION", "ADDRESS": "18701 NE 6TH AVE", "CITY": "UNINCORPORATED MIAMI-DADE", "ZIPCODE": 33179, "TYPE": 2, "ID2": " 30", "CNTYOWN": "Y", "LAT": 25.94796, "LON": -80.1879, "POINT_X": 923023.62213092996, "POINT_Y": 587602.43507292995, "GlobalID": "d40c2af7-e962-4030-afba-72bf04cf48c7" }, "geometry": { "type": "Point", "coordinates": [ -80.187904013834995, 25.947960647960802 ] } },
{ "type": "Feature", "properties": { "OBJECTID": 21, "FOLIO": "3020100000010", "ID": 3, "NAME": "PALM SPRINGS NORTH", "ADDRESS": "7870 NW 178TH ST", "CITY": "UNINCORPORATED MIAMI-DADE", "ZIPCODE": 33015, "TYPE": 1, "ID2": "4", "CNTYOWN": "Y", "LAT": 25.93434, "LON": -80.32884, "POINT_X": 876735.56149201002, "POINT_Y": 582390.43598251999, "GlobalID": "4f2652d2-75c1-492e-9575-9377c4fba03f" }, "geometry": { "type": "Point", "coordinates": [ -80.328840570301395, 25.93434271904 ] } }
]
}
